{"features": [{"geometry": {"coordinates": [121.04491, 14.389263], "type": "Point"}, "properties": {"city": "Muntinlupa", "name": "Supervisor - Professional Services"}, "type": "Feature"}, {"geometry": {"coordinates": [120.980967, 14.590733], "type": "Point"}, "properties": {"city": "Manila", "name": "Salesforce Developer"}, "type": "Feature"}, {"geometry": {"coordinates": [121.04491, 14.389263], "type": "Point"}, "properties": {"city": "Muntinlupa", "name": "General Accountant, MOC"}, "type": "Feature"}, {"geometry": {"coordinates": [121.0337, 14.577649], "type": "Point"}, "properties": {"city": "Mandaluyong", "name": "Senior Digital Marketing Manager"}, "type": "Feature"}, {"geometry": {"coordinates": [123.893111, 10.309555], "type": "Point"}, "properties": {"city": "Cebu City", "name": "Senior Web Developer - Django"}, "type": "Feature"}, {"geometry": {"coordinates": [121.048615, 14.650991], "type": "Point"}, "properties": {"city": "Quezon City", "name": "Multimedia Specialist (Video)"}, "type": "Feature"}, {"geometry": {"coordinates": [121.069917, 14.528887], "type": "Point"}, "properties": {"city": "Taguig", "name": "Senior Data Scientist - Taguig City, NCR"}, "type": "Feature"}, {"geometry": {"coordinates": [120.980967, 14.590733], "type": "Point"}, "properties": {"city": "Manila", "name": "Automation Tester - Load Runner"}, "type": "Feature"}, {"geometry": {"coordinates": [121.069917, 14.528887], "type": "Point"}, "properties": {"city": "Taguig", "name": "SQL Developer - Taguig City, NCR"}, "type": "Feature"}, {"geometry": {"coordinates": [123.185032, 13.624012], "type": "Point"}, "properties": {"city": "Naga", "name": "GENERAL ACCOUNTING PROFESSIONAL"}, "type": "Feature"}, {"geometry": {"coordinates": [120.98191, 14.480609], "type": "Point"}, "properties": {"city": "Las Piñas", "name": "SENIOR REACT DEVELOPER"}, "type": "Feature"}, {"geometry": {"coordinates": [120.587918, 15.139966], "type": "Point"}, "properties": {"city": "Angeles", "name": "Web/ IoT Software Engineer"}, "type": "Feature"}, {"geometry": {"coordinates": [125.608437, 7.064545], "type": "Point"}, "properties": {"city": "Davao", "name": "Multimedia Specialist (Web Design)"}, "type": "Feature"}, {"geometry": {"coordinates": [121.042449, 14.416969], "type": "Point"}, "properties": {"city": "Alabang", "name": "Java Developer - Full Stack Engineer - Multiple Locations"}, "type": "Feature"}, {"geometry": {"coordinates": [125.608437, 7.064545], "type": "Point"}, "properties": {"city": "Davao", "name": "Senior Multimedia Designer"}, "type": "Feature"}, {"geometry": {"coordinates": [121.069917, 14.528887], "type": "Point"}, "properties": {"city": "Taguig", "name": "Clinical Training Supervisor USRN - Taguig City, NCR"}, "type": "Feature"}, {"geometry": {"coordinates": [121.081237, 14.559482], "type": "Point"}, "properties": {"city": "Pasig", "name": "Company Clinic Nurse - Pasig"}, "type": "Feature"}, {"geometry": {"coordinates": [121.069917, 14.528887], "type": "Point"}, "properties": {"city": "Taguig", "name": "Brand Manager"}, "type": "Feature"}, {"geometry": {"coordinates": [123.893111, 10.309555], "type": "Point"}, "properties": {"city": "Cebu City", "name": "Web Designer & Marketing Executive - Virtual Working"}, "type": "Feature"}, {"geometry": {"coordinates": [120.980967, 14.590733], "type": "Point"}, "properties": {"city": "Manila", "name": "Kinaxis RapidResponse Application Designer & Architect"}, "type": "Feature"}, {"geometry": {"coordinates": [121.048615, 14.650991], "type": "Point"}, "properties": {"city": "Quezon City", "name": "Company Clinic Nurse - Eastwood"}, "type": "Feature"}, {"geometry": {"coordinates": [121.081237, 14.559482], "type": "Point"}, "properties": {"city": "Pasig", "name": "Implementation Consultant I"}, "type": "Feature"}, {"geometry": {"coordinates": [120.587918, 15.139966], "type": "Point"}, "properties": {"city": "Angeles", "name": "Executive Assistant"}, "type": "Feature"}, {"geometry": {"coordinates": [120.587918, 15.139966], "type": "Point"}, "properties": {"city": "Angeles", "name": "General Virtual Assistant"}, "type": "Feature"}, {"geometry": {"coordinates": [120.980967, 14.590733], "type": "Point"}, "properties": {"city": "Manila", "name": "Inside Sales Representative / SDR - Outbound (Banking/ FSI)"}, "type": "Feature"}, {"geometry": {"coordinates": [120.980967, 14.590733], "type": "Point"}, "properties": {"city": "Manila", "name": "Technical Project Manager"}, "type": "Feature"}, {"geometry": {"coordinates": [121.048615, 14.650991], "type": "Point"}, "properties": {"city": "Quezon City", "name": "Accounting/Admin Staff"}, "type": "Feature"}, {"geometry": {"coordinates": [121.021123, 14.556795], "type": "Point"}, "properties": {"city": "Makati", "name": "Mobile Application Developer"}, "type": "Feature"}, {"geometry": {"coordinates": [121.0337, 14.577649], "type": "Point"}, "properties": {"city": "Mandaluyong", "name": "Content Developer (Training)-100% Remote"}, "type": "Feature"}, {"geometry": {"coordinates": [123.893111, 10.309555], "type": "Point"}, "properties": {"city": "Cebu City", "name": "IT System Administrator REMOTE (Network Services)"}, "type": "Feature"}, {"geometry": {"coordinates": [121.0337, 14.577649], "type": "Point"}, "properties": {"city": "Mandaluyong", "name": "Workforce and Reporting Analyst"}, "type": "Feature"}, {"geometry": {"coordinates": [120.980967, 14.590733], "type": "Point"}, "properties": {"city": "Manila", "name": "Lead Integration Consultant - Java/MuleSoft (with Hiring Bonus!)"}, "type": "Feature"}, {"geometry": {"coordinates": [121.042449, 14.416969], "type": "Point"}, "properties": {"city": "Alabang", "name": "VMware Cloud Systems and Software Engineer"}, "type": "Feature"}, {"geometry": {"coordinates": [121.081237, 14.559482], "type": "Point"}, "properties": {"city": "Pasig", "name": "Resource Management Analyst"}, "type": "Feature"}, {"geometry": {"coordinates": [120.980967, 14.590733], "type": "Point"}, "properties": {"city": "Manila", "name": "Integration Architect (with Hiring Bonus!)"}, "type": "Feature"}, {"geometry": {"coordinates": [120.980967, 14.590733], "type": "Point"}, "properties": {"city": "Manila", "name": "Content Moderation New Associate"}, "type": "Feature"}, {"geometry": {"coordinates": [121.069917, 14.528887], "type": "Point"}, "properties": {"city": "Taguig", "name": "SK-II IT Application Manager"}, "type": "Feature"}, {"geometry": {"coordinates": [120.980967, 14.590733], "type": "Point"}, "properties": {"city": "Manila", "name": "Lead Integration Consultant"}, "type": "Feature"}, {"geometry": {"coordinates": [121.099354, 14.633108], "type": "Point"}, "properties": {"city": "Marikina", "name": "Credit and Collection Staff"}, "type": "Feature"}, {"geometry": {"coordinates": [121.069917, 14.528887], "type": "Point"}, "properties": {"city": "Taguig", "name": "P&G SAP IT Application Manager"}, "type": "Feature"}, {"geometry": {"coordinates": [121.0337, 14.577649], "type": "Point"}, "properties": {"city": "Mandaluyong", "name": "Service Desk Team Lead"}, "type": "Feature"}, {"geometry": {"coordinates": [121.021123, 14.556795], "type": "Point"}, "properties": {"city": "Makati", "name": "Quality Assurance Engineer (SaaS)"}, "type": "Feature"}, {"geometry": {"coordinates": [121.021123, 14.556795], "type": "Point"}, "properties": {"city": "Makati", "name": "Software Quality Assurance and Testing Supervisor"}, "type": "Feature"}, {"geometry": {"coordinates": [121.069917, 14.528887], "type": "Point"}, "properties": {"city": "Taguig", "name": "Workday Integration Engineer"}, "type": "Feature"}, {"geometry": {"coordinates": [120.980967, 14.590733], "type": "Point"}, "properties": {"city": "Manila", "name": "Senior Integration Consultant - Java / MuleSoft"}, "type": "Feature"}, {"geometry": {"coordinates": [121.030049, 14.60474], "type": "Point"}, "properties": {"city": "San Juan", "name": "Site Specialist"}, "type": "Feature"}, {"geometry": {"coordinates": [120.980967, 14.590733], "type": "Point"}, "properties": {"city": "Manila", "name": "Lead Integration Consultant - MuleSoft (with Hiring Bonus)"}, "type": "Feature"}, {"geometry": {"coordinates": [121.069917, 14.528887], "type": "Point"}, "properties": {"city": "Taguig", "name": "IT Director - Salesforce Product Manager"}, "type": "Feature"}, {"geometry": {"coordinates": [120.991549, 14.500702], "type": "Point"}, "properties": {"city": "Parañaque", "name": "Executive Secretary"}, "type": "Feature"}, {"geometry": {"coordinates": [123.344937, 8.586406], "type": "Point"}, "properties": {"city": "Dipolog", "name": "Guidance Counsellor/Psychometrician"}, "type": "Feature"}, {"geometry": {"coordinates": [123.893111, 10.309555], "type": "Point"}, "properties": {"city": "Cebu City", "name": "Customer Development Manager"}, "type": "Feature"}, {"geometry": {"coordinates": [120.587918, 15.139966], "type": "Point"}, "properties": {"city": "Angeles", "name": "Digital Marketer"}, "type": "Feature"}, {"geometry": {"coordinates": [120.980967, 14.590733], "type": "Point"}, "properties": {"city": "Manila", "name": "Technical Project Manager/Scrum Master"}, "type": "Feature"}, {"geometry": {"coordinates": [121.069917, 14.528887], "type": "Point"}, "properties": {"city": "Taguig", "name": "Application and Hardware Asset Compliance Manager"}, "type": "Feature"}, {"geometry": {"coordinates": [120.980967, 14.590733], "type": "Point"}, "properties": {"city": "Manila", "name": "Credit and Collection Staff"}, "type": "Feature"}, {"geometry": {"coordinates": [121.048615, 14.650991], "type": "Point"}, "properties": {"city": "Quezon City", "name": "Test Specialist: Packages"}, "type": "Feature"}, {"geometry": {"coordinates": [121.069917, 14.528887], "type": "Point"}, "properties": {"city": "Taguig", "name": "Azure/Salesforce DevOps Manager"}, "type": "Feature"}, {"geometry": {"coordinates": [121.0337, 14.577649], "type": "Point"}, "properties": {"city": "Mandaluyong", "name": "Security Tools Monitoring Analyst (Security Technology Operations)"}, "type": "Feature"}, {"geometry": {"coordinates": [120.980967, 14.590733], "type": "Point"}, "properties": {"city": "Manila", "name": "Full Stack Developer"}, "type": "Feature"}, {"geometry": {"coordinates": [121.099354, 14.633108], "type": "Point"}, "properties": {"city": "Marikina", "name": "Operations Officer"}, "type": "Feature"}, {"geometry": {"coordinates": [121.084183, 14.338826], "type": "Point"}, "properties": {"city": "Binãn", "name": "Planning Staff"}, "type": "Feature"}, {"geometry": {"coordinates": [121.021123, 14.556795], "type": "Point"}, "properties": {"city": "Makati", "name": "Junior IT Business Analyst"}, "type": "Feature"}, {"geometry": {"coordinates": [121.069917, 14.528887], "type": "Point"}, "properties": {"city": "Taguig", "name": "Warehousing Solution & Application Manager - PrIME Performance Engineer"}, "type": "Feature"}, {"geometry": {"coordinates": [120.980967, 14.590733], "type": "Point"}, "properties": {"city": "Manila", "name": "Integration Architect"}, "type": "Feature"}, {"geometry": {"coordinates": [121.164288, 13.941469], "type": "Point"}, "properties": {"city": "Lipa", "name": "Subdivision Admin"}, "type": "Feature"}, {"geometry": {"coordinates": [121.069917, 14.528887], "type": "Point"}, "properties": {"city": "Taguig", "name": "Sales Key Account Manager"}, "type": "Feature"}, {"geometry": {"coordinates": [123.893111, 10.309555], "type": "Point"}, "properties": {"city": "Cebu City", "name": "Python Programming Language Tester"}, "type": "Feature"}, {"geometry": {"coordinates": [120.980967, 14.590733], "type": "Point"}, "properties": {"city": "Manila", "name": "Trailer Truck Driver"}, "type": "Feature"}, {"geometry": {"coordinates": [121.048615, 14.650991], "type": "Point"}, "properties": {"city": "Quezon City", "name": "HR Recruitment Staff"}, "type": "Feature"}, {"geometry": {"coordinates": [124.86, 7.27], "type": "Point"}, "properties": {"city": "Cotabato", "name": "Family Planning Specialist"}, "type": "Feature"}, {"geometry": {"coordinates": [126.059908, 8.361472], "type": "Point"}, "properties": {"city": "Rosario", "name": "Sales Promodiser (Hanabishi)"}, "type": "Feature"}, {"geometry": {"coordinates": [121.081237, 14.559482], "type": "Point"}, "properties": {"city": "Pasig", "name": "Litigation Lawyer"}, "type": "Feature"}, {"geometry": {"coordinates": [120.566899, 15.976], "type": "Point"}, "properties": {"city": "Urdaneta", "name": "Barista for Starbucks SM City Urdaneta Central"}, "type": "Feature"}], "type": "FeatureCollection"}